<?xml version="1.0" encoding="utf-8"?>
<stations>
  <station code="ACT" name="Acton Town" active="true">
    <description>Acton Town Station, London Underground Ltd., Gunnersbury Lane, London, W3 8HN</description>
    <coords>
      <lat>51.502749773000570000</lat>
      <lon>-0.280251203536110600</lon>
    </coords>
  </station>
  <station code="ALD" name="Aldgate" active="true">
    <description>Aldgate Station, London Underground Ltd., Aldgate High St, London, EC3N 1AH</description>
    <coords>
      <lat>51.514271823083390000</lat>
      <lon>-0.075614184477749600</lon>
    </coords>
  </station>
  <station code="ALE" name="Aldgate East" active="true">
    <description>Aldgate East Station, London Underground Ltd., Whitechapel High St, London, E1 7PT</description>
    <coords>
      <lat>51.515233413796480000</lat>
      <lon>-0.072287119975365420</lon>
    </coords>
  </station>
  <station code="ALP" name="Alperton" active="true">
    <description>Alperton Station, London Underground Ltd., Ealing Rd, Wembley, Middlesex, HA0 4LL</description>
    <coords>
      <lat>51.540694766293470000</lat>
      <lon>-0.299486538678611470</lon>
    </coords>
  </station>
  <station code="AME" name="Amersham" active="true">
    <description>Amersham Station, Stn Approach, Amersham, Bucks HP6 5AZ</description>
    <coords>
      <lat>51.674149710629730000</lat>
      <lon>-0.607478839102469000</lon>
    </coords>
  </station>
  <station code="ANG" name="Angel" active="true">
    <description>Angel Station, London Underground Ltd., City Rd, London, EC1V 1NE</description>
    <coords>
      <lat>51.532498868904300000</lat>
      <lon>-0.105789913665305300</lon>
    </coords>
  </station>
  <station code="ARC" name="Archway" active="true">
    <description>Archway Station, London Underground Ltd., Junction Rd, London, N19 5RQ</description>
    <coords>
      <lat>51.565426754533750000</lat>
      <lon>-0.135113518210335370</lon>
    </coords>
  </station>
  <station code="AGR" name="Arnos Grove" active="true">
    <description>Arnos Grove Station, London Underground Ltd., Bowes Rd, London, N11 1AN</description>
    <coords>
      <lat>51.616340261056756000</lat>
      <lon>-0.133516309581780070</lon>
    </coords>
  </station>
  <station code="ARL" name="Arsenal" active="true">
    <description>Arsenal Station, London Underground Ltd., Highbury Hill, London, N5 1LP</description>
    <coords>
      <lat>51.558498768776680000</lat>
      <lon>-0.105761988175557870</lon>
    </coords>
  </station>
  <station code="BBB" name="Bromley-by-Bow" active="true">
          <description>London Underground, 55 Broadway, London, SW1H 0BD</description>
          <coords>
                  <lat>51.524769937557340000</lat>
                  <lon>-0.011661937058285864</lon>
          </coords>
  </station>
  <station code="BST" name="Baker Street" active="true">
    <description>Baker Street Station Marylebone Rd, London, NW1</description>
    <coords>
      <lat>51.523061248142790000</lat>
      <lon>-0.156900356057780880</lon>
    </coords>
  </station>
  <station code="BAL" name="Balham" active="true">
    <description>Balham Underground Station, London Underground Ltd., Balham High Rd, London, SW12 9BW</description>
    <coords>
      <lat>51.443328979635250000</lat>
      <lon>-0.153207552666472820</lon>
    </coords>
  </station>
  <station code="BNK" name="Bank" active="true">
    <description>Bank/Monument Complex, London Underground Ltd., Princes St, London, EC3V 3LA</description>
    <coords>
      <lat>51.513302371519344000</lat>
      <lon>-0.088915809045260000</lon>
    </coords>
  </station>
  <station code="BAR" name="Barbican" active="true">
    <description>Barbican Station, London Underground Ltd., Aldersgate St, London, EC1A 4JA</description>
    <coords>
      <lat>51.520145725324900000</lat>
      <lon>-0.097711123216248310</lon>
    </coords>
  </station>
  <station code="BKG" name="Barking" active="true">
    <description>Barking Station BR Station Parade, Longbridge Rd, Barking, Essex, IG11 8TU</description>
    <coords>
      <lat>51.539451208515715000</lat>
      <lon>.080863182849410430</lon>
    </coords>
  </station>
  <station code="BDE" name="Barkingside" active="true">
    <description>Barkingside Station, London Underground Ltd., Stn Rd, Barkingside, Milford, Essex, IG6 1NB</description>
    <coords>
      <lat>51.585785960390545000</lat>
      <lon>.088511013821779280</lon>
    </coords>
  </station>
  <station code="BCT" name="Barons Court" active="true">
    <description>Barons Court Station, London Underground Ltd., Pallister Rd, London, W14</description>
    <coords>
      <lat>51.490159942708935000</lat>
      <lon>-0.213606857361082370</lon>
    </coords>
  </station>
  <station code="" name="Bayswater" active="false">
    <description>Bayswater Station, London Underground Ltd., Queensway, London, W2 4QH</description>
    <coords>
      <lat>51.512233058741060000</lat>
      <lon>-0.188038262221618460</lon>
    </coords>
  </station>
  <station code="BEC" name="Becontree" active="true">
    <description>Becontree Station, London Underground Ltd., Gale St, Dagenham, Essex, RM9 4TP</description>
    <coords>
      <lat>51.540288535204700000</lat>
      <lon>.127400321155280580</lon>
    </coords>
  </station>
  <station code="BPK" name="Belsize Park" active="true">
    <description>Belsize Park Station, London Underground Ltd., Haverstock Hill, London, NW3 2AL</description>
    <coords>
      <lat>51.550426627718240000</lat>
      <lon>-0.164232306333818050</lon>
    </coords>
  </station>
  <station code="BER" name="Bermondsey" active="true">
    <description>Bermondsey Station, London Underground Ltd., 142 - 154 Jamaica Rd, London, SE16 4RX</description>
    <coords>
      <lat>51.497949119581570000</lat>
      <lon>-0.063651350918079250</lon>
    </coords>
  </station>
  <station code="BNG" name="Bethnal Green" active="true">
    <description>Bethnal Green Underground Station, London Underground Ltd., Cambridge Heath Rd, London, E2 0ET</description>
    <coords>
      <lat>51.527195236069566000</lat>
      <lon>-0.055431117145884300</lon>
    </coords>
  </station>
  <station code="BLF" name="Blackfriars" active="true">
    <description>Blackfriars Underground Station, London Underground Ltd., 179 Queen Victoria St, London, EC4V 4DD</description>
    <coords>
      <lat>51.511490522247490000</lat>
      <lon>-0.103606731219862620</lon>
    </coords>
  </station>
  <station code="BHR" name="Blackhorse Road" active="true">
    <description>Blackhorse Road Underground Station, London Underground Ltd., Blackhorse Rd, London, E17 6ND</description>
    <coords>
      <lat>51.586951195438930000</lat>
      <lon>-0.040996340920370744</lon>
    </coords>
  </station>
  <station code="BDS" name="Bond Street" active="true">
    <description>Bond Street Station, London Underground Ltd., Oxford St, London, W1R 1FE</description>
    <coords>
      <lat>51.513804535388070000</lat>
      <lon>-0.149332354586202300</lon>
    </coords>
  </station>
  <station code="BOR" name="Borough" active="true">
    <description>Borough Station, London Underground Ltd., Borough High St, London, SE1 1JX</description>
    <coords>
      <lat>51.501193998928510000</lat>
      <lon>-0.093702664758373440</lon>
    </coords>
  </station>
  <station code="BOS" name="Boston Manor" active="true">
    <description>Boston Manor Station, London Underground Ltd., Boston Manor Rd, Brentford, Middx, TW8 9LQ</description>
    <coords>
      <lat>51.495696382188164000</lat>
      <lon>-0.324763573796374050</lon>
    </coords>
  </station>
  <station code="BGR" name="Bounds Green" active="true">
    <description>Bounds Green Station, London Underground Ltd., Bounds Green Rd, London, N11 2EU</description>
    <coords>
      <lat>51.607090556952755000</lat>
      <lon>-0.124218963208536690</lon>
    </coords>
  </station>
  <station code="BWR" name="Bow Road" active="true">
    <description>Bow Road Station, London Underground Ltd., Bow Road, London, E3 4DH</description>
    <coords>
      <lat>51.526800254826064000</lat>
      <lon>-0.024823746874528683</lon>
    </coords>
  </station>
  <station code="BTX" name="Brent Cross" active="true">
    <description>Brent Cross Station, London Underground Ltd., Highfield Avenue, London, NW11 9UA</description>
    <coords>
      <lat>51.576800471443870000</lat>
      <lon>-0.213455833755365300</lon>
    </coords>
  </station>
  <station code="BRX" name="Brixton" active="true">
    <description>Brixton Underground Station, London Underground Ltd., Brixton Rd, London, SW9 8HE</description>
    <coords>
      <lat>51.462581333631725000</lat>
      <lon>-0.114635581578615600</lon>
    </coords>
  </station>
  <station code="BHL" name="Buckhurst Hill" active="true">
    <description>Buckhurst Hill Station, London Underground Ltd., Victoria Rd, Buckhurst Hill, Essex, IG9 5ET</description>
    <coords>
      <lat>51.626517330409435000</lat>
      <lon>.046743856240495990</lon>
    </coords>
  </station>
  <station code="BUR" name="Burnt Oak" active="true">
    <description>Burnt Oak Station, London Underground Ltd., Watling Avenue, Edgware, Middx, HA8 0LA</description>
    <coords>
      <lat>51.602681099702550000</lat>
      <lon>-0.264198758145630100</lon>
    </coords>
  </station>
  <station code="CRD" name="Caledonian Road" active="true">
    <description>Caledonian Road Underground Station, London Underground Ltd., Caledonian Rd, London, N7 9BA</description>
    <coords>
      <lat>51.548421318403776000</lat>
      <lon>-0.118312333133271940</lon>
    </coords>
  </station>
  <station code="CTN" name="Camden Town" active="true">
    <description>Camden Town Station, London Underground Ltd., Camden High St, London, NW1 8NH</description>
    <coords>
      <lat>51.539403522631090000</lat>
      <lon>-0.142726148730286300</lon>
    </coords>
  </station>
  <station code="CWR" name="Canada Water" active="true">
    <description>Canada Water Station, London Underground Ltd., Deal Porter Way, Surrey Quays, London, SE16</description>
    <coords>
      <lat>51.497888681995114000</lat>
      <lon>-0.049705986794378270</lon>
    </coords>
  </station>
  <station code="CWF" name="Canary Wharf" active="true">
    <description>Canary Wharf Station, London Underground Ltd., Heron Quays Road, Canary Wharf, London, E14 4HJ</description>
    <coords>
      <lat>51.503550485647594000</lat>
      <lon>-0.019431816253263262</lon>
    </coords>
  </station>
  <station code="CNT" name="Canning Town" active="true">
    <description>Canning Town Station, London Underground Ltd., Silvertown Way, Canning Town, London, E16 1DQ</description>
    <coords>
      <lat>51.513837129289570000</lat>
      <lon>.008171036532588041</lon>
    </coords>
  </station>
  <station code="CST" name="Cannon Street" active="true">
    <description>Cannon Street Underground Station, London Underground Ltd., Cannon St, London, EC4N 6AP</description>
    <coords>
      <lat>51.511433722337300000</lat>
      <lon>-0.090694850680980680</lon>
    </coords>
  </station>
  <station code="CPK" name="Canons Park" active="true">
    <description>Canons Park Station, London Underground Ltd., Whitchurch Lane, Edgware, Middx, HA8 6RN</description>
    <coords>
      <lat>51.607759515215320000</lat>
      <lon>-0.294653740878426550</lon>
    </coords>
  </station>
  <station code="CLF" name="Chalfont &amp; Latimer" active="true">
    <description>Chalfont &amp; Latimer Station, London Underground Ltd., Station Approach, Little Chalfont, Amersham, Bucks, HP7 9PR</description>
    <coords>
      <lat>51.668025473926090000</lat>
      <lon>-0.560534956448776200</lon>
    </coords>
  </station>
  <station code="CHF" name="Chalk Farm" active="true">
    <description>Chalk Farm Station, London Underground Ltd., Adelaide Rd, London, NW3 2BP</description>
    <coords>
      <lat>51.544083102422630000</lat>
      <lon>-0.153728009451251480</lon>
    </coords>
  </station>
  <station code="CYL" name="Chancery Lane" active="true">
    <description>Chancery Lane Station, London Underground Ltd., High Holborn, London, WC1V 6DR</description>
    <coords>
      <lat>51.518123230614440000</lat>
      <lon>-0.111677427383970640</lon>
    </coords>
  </station>
  <station code="CHX" name="Charing Cross" active="true">
    <description>Charing Cross Underground Station, London Underground Ltd., Trafalgar Square, London, WC2N 5DR</description>
    <coords>
      <lat>51.508593207603190000</lat>
      <lon>-0.124754686624366030</lon>
    </coords>
  </station>
  <station code="" name="Chesham" active="false">
    <description>Chesham Station, London Underground Ltd., Station Approach, Chesham, Bucks, HP5 1DH</description>
    <coords>
      <lat>51.705030454829610000</lat>
      <lon>-0.611219246324909900</lon>
    </coords>
  </station>
  <station code="CHG" name="Chigwell" active="true">
    <description>Chigwell Station, London Underground Ltd., Station Rd, Chigwell, Essex, IG7 6NT</description>
    <coords>
      <lat>51.617871925405100000</lat>
      <lon>.074526611263722940</lon>
    </coords>
  </station>
  <station code="CHP" name="Chiswick Park" active="true">
    <description>Chiswick Park Station, London Underground Ltd., Bollo Lane, London, W4 5NE</description>
    <coords>
      <lat>51.494300591745144000</lat>
      <lon>-0.267746873913726140</lon>
    </coords>
  </station>
  <station code="CWD" name="Chorleywood" active="true">
    <description>Chorleywood Station, London Underground Ltd., Station Approach, Chorleywood, Rickmansworth, Herts WD3 5ND</description>
    <coords>
      <lat>51.654217860774500000</lat>
      <lon>-0.518365989763054100</lon>
    </coords>
  </station>
  <station code="CPC" name="Clapham Common" active="true">
    <description>Clapham Common Station, London Underground Ltd., The Pavement, London, SW4 7AJ</description>
    <coords>
      <lat>51.461727933283946000</lat>
      <lon>-0.138311459464252400</lon>
    </coords>
  </station>
  <station code="CPN" name="Clapham North" active="true">
    <description>Clapham North Station, London Underground Ltd., Clapham High St, London, SW4 7TS</description>
    <coords>
      <lat>51.464843732027760000</lat>
      <lon>-0.129531053727598040</lon>
    </coords>
  </station>
  <station code="CPS" name="Clapham South" active="true">
    <description>Clapham South Station, London Underground Ltd., Balham Hill, London, SW12 9DU</description>
    <coords>
      <lat>51.452599834714476000</lat>
      <lon>-0.147982098639174410</lon>
    </coords>
  </station>
  <station code="CFS" name="Cockfosters" active="true">
    <description>Cockfosters Station, London Underground Ltd., Cockfosters Rd, Barnet, Herts, EN4 0DZ</description>
    <coords>
      <lat>51.651687534574954000</lat>
      <lon>-0.149614715155877680</lon>
    </coords>
  </station>
  <station code="COL" name="Colindale" active="true">
    <description>Colindale Station, London Underground Ltd., Colindale Avenue, London, NW9 5HR</description>
    <coords>
      <lat>51.595286518799250000</lat>
      <lon>-0.250142587760251700</lon>
    </coords>
  </station>
  <station code="CLW" name="Colliers Wood" active="true">
    <description>Colliers Wood Station, London Underground Ltd., Colliers Wood High St, London, SW19 2HR</description>
    <coords>
      <lat>51.418071885122640000</lat>
      <lon>-0.177700936628786360</lon>
    </coords>
  </station>
  <station code="COV" name="Covent Garden" active="true">
    <description>Covent Garden Station, London Underground Ltd., Long Acre, London, WC2E 9JT</description>
    <coords>
      <lat>51.512909586141590000</lat>
      <lon>-0.124159260603112690</lon>
    </coords>
  </station>
  <station code="CRX" name="Croxley" active="true">
    <description>Croxley Station, London Underground Ltd., Watford Road, Rickmansworth, Herts, WD3 3DY</description>
    <coords>
      <lat>51.647046338116360000</lat>
      <lon>-0.441710992609101700</lon>
    </coords>
  </station>
  <station code="DGE" name="Dagenham East" active="true">
    <description>Dagenham East Station, London Underground Ltd., North Rainham Rd, Dagenham, Essex, RM10 8AA</description>
    <coords>
      <lat>51.544116734223610000</lat>
      <lon>.165874869677022780</lon>
    </coords>
  </station>
  <station code="DGH" name="Dagenham Heathway" active="true">
    <description>Dagenham Heathway Station, London Underground Ltd., Heathway, Dagenham, Essex, RM9 5AN</description>
    <coords>
      <lat>51.541627413616190000</lat>
      <lon>.147684194913217710</lon>
    </coords>
  </station>
  <station code="DEB" name="Debden" active="true">
    <description>Debden Station, London Underground Ltd., Chigwell Lane, Loughton, Essex, IG10 3TG</description>
    <coords>
      <lat>51.645434322048956000</lat>
      <lon>.083837809879712370</lon>
    </coords>
  </station>
  <station code="DHL" name="Dollis Hill" active="true">
    <description>Dollis Hill Station, London Underground Ltd., Hamilton Rd, London, NW10 5NB</description>
    <coords>
      <lat>51.551903559056100000</lat>
      <lon>-0.238797558508156870</lon>
    </coords>
  </station>
  <station code="EBY" name="Ealing Broadway" active="true">
    <description>Ealing Broadway Station, The Broadway, London, W5 2NU</description>
    <coords>
      <lat>51.514913033739160000</lat>
      <lon>-0.301500096369187100</lon>
    </coords>
  </station>
  <station code="ECM" name="Ealing Common" active="true">
    <description>Ealing Common Station, London Underground Ltd., Uxbridge Rd, London, W5 3LD</description>
    <coords>
      <lat>51.510124738537850000</lat>
      <lon>-0.288260381056999100</lon>
    </coords>
  </station>
  <station code="ECT" name="Earl's Court" active="true">
    <description>Earl's Court Station, London Underground Ltd., Earl's Court Rd, London, SW5 9QA</description>
    <coords>
      <lat>51.491803907898900000</lat>
      <lon>-0.193545854058733800</lon>
    </coords>
  </station>
  <station code="EAC" name="East Acton" active="true">
    <description>East Acton Station, London Underground Ltd., Erconwald St, London, W12 0BP</description>
    <coords>
      <lat>51.516582199054170000</lat>
      <lon>-0.247513203550207700</lon>
    </coords>
  </station>
  <station code="EFY" name="East Finchley" active="true">
    <description>East Finchley Station, London Underground Ltd., High Rd, London, N2 0NW</description>
    <coords>
      <lat>51.587271719132026000</lat>
      <lon>-0.164738305623223720</lon>
    </coords>
  </station>
  <station code="EHM" name="East Ham" active="true">
    <description>East Ham Station, London Underground Ltd., High Street North, London, E6 2JA</description>
    <coords>
      <lat>51.538926036547580000</lat>
      <lon>.051475548835470040</lon>
    </coords>
  </station>
  <station code="EPY" name="East Putney" active="true">
    <description>East Putney Station, Upper Richmond Rd, London, SW15</description>
    <coords>
      <lat>51.458804746350000000</lat>
      <lon>-0.211003174222271470</lon>
    </coords>
  </station>
  <station code="" name="Eastcote" active="false">
    <description>Eastcote Station, London Underground Ltd., Field End Rd, Ruislip, Middx, HA5 1QZ</description>
    <coords>
      <lat>51.576493044501650000</lat>
      <lon>-0.396844627186990200</lon>
    </coords>
  </station>
  <station code="EDG" name="Edgware" active="true">
    <description>Edgware Station, London Underground Ltd., Station Rd, Edgware, Middx, HA8 7AW</description>
    <coords>
      <lat>51.613623079849460000</lat>
      <lon>-0.274976006045290200</lon>
    </coords>
  </station>
  <station code="ELE" name="Elephant &amp; Castle" active="true">
    <description>Elephant &amp; Castle Underground Station, London Underground Ltd., London Rd, London, SE1 6LW</description>
    <coords>
      <lat>51.495777047270740000</lat>
      <lon>-0.100729603883341970</lon>
    </coords>
  </station>
  <station code="EPK" name="Elm Park" active="true">
    <description>Elm Park Station, London Underground Ltd., The Broadway, Hornchurch, Essex, RM12 4RW</description>
    <coords>
      <lat>51.549801253986864000</lat>
      <lon>.199180459239238080</lon>
    </coords>
  </station>
  <station code="EMB" name="Embankment" active="true">
    <description>Embankment Station, London Underground Ltd., Villiers St, London, WC2N 6NS</description>
    <coords>
      <lat>51.507241796748396000</lat>
      <lon>-0.122360215814178660</lon>
    </coords>
  </station>
  <station code="EPP" name="Epping" active="true">
    <description>Epping Station, London Underground Ltd., Station Rd, Epping, Essex, CM16 4HW</description>
    <coords>
      <lat>51.693624607565480000</lat>
      <lon>.113866915583570900</lon>
    </coords>
  </station>
  <station code="EUS" name="Euston" active="true">
    <description>Euston Underground Station, London Underground Ltd., Eversholt St, London, NW1 2DU</description>
    <coords>
      <lat>51.528596260899460000</lat>
      <lon>-0.133289718799315530</lon>
    </coords>
  </station>
  <station code="ESQ" name="Euston Square" active="true">
    <description>Euston Square Station, London Underground Ltd., Euston Rd, London, NW1 2BN</description>
    <coords>
      <lat>51.525561006016105000</lat>
      <lon>-0.135836140694320340</lon>
    </coords>
  </station>
  <station code="FLP" name="Fairlop" active="true">
    <description>Fairlop Station, London Underground Ltd., Forest Rd, Ilford, Essex, IG6 3HD</description>
    <coords>
      <lat>51.595680931861040000</lat>
      <lon>.090929226191151620</lon>
    </coords>
  </station>
  <station code="FAR" name="Farringdon" active="true">
    <description>Farringdon Station, London Underground Ltd., Cowcross St, London, EC1M 6BY</description>
    <coords>
      <lat>51.520444754930790000</lat>
      <lon>-0.105065254236880330</lon>
    </coords>
  </station>
  <station code="FYC" name="Finchley Central" active="true">
    <description>Finchley Central Station, London Underground Ltd., Regents Park Road, London, N3 2RY</description>
    <coords>
      <lat>51.600976420785250000</lat>
      <lon>-0.192447107072110800</lon>
    </coords>
  </station>
  <station code="FRD" name="Finchley Road" active="true">
    <description>Finchley Road Underground Station, London Underground Ltd., Finchley Road, London, NW3 6OP</description>
    <coords>
      <lat>51.547064834336794000</lat>
      <lon>-0.180494175915812260</lon>
    </coords>
  </station>
  <station code="FPK" name="Finsbury Park" active="true">
    <description>Finsbury Park Underground Station, London Underground Ltd., Wells Terrace, London, N4 3JU</description>
    <coords>
      <lat>51.564401648484590000</lat>
      <lon>-0.106512100282158470</lon>
    </coords>
  </station>
  <station code="FBY" name="Fulham Broadway" active="true">
    <description>Fulham Broadway Station, London Underground Ltd., Fulham Broadway, London, SW6 1BY</description>
    <coords>
      <lat>51.480529784298170000</lat>
      <lon>-0.194956844603215860</lon>
    </coords>
  </station>
  <station code="GHL" name="Gants Hill" active="true">
    <description>Gants Hill Station, London Underground Ltd., Cranbrook Rd, Ilford, Essex, IG2 6UD</description>
    <coords>
      <lat>51.576487548031560000</lat>
      <lon>.066115533982912160</lon>
    </coords>
  </station>
  <station code="GRD" name="Gloucester Road" active="true">
    <description>Gloucester Road Station, London Underground Ltd., Gloucester Rd, London, SW7 4SF</description>
    <coords>
      <lat>51.494239783916480000</lat>
      <lon>-0.182989526482896930</lon>
    </coords>
  </station>
  <station code="GGR" name="Golders Green" active="true">
    <description>Golders Green Station, London Underground Ltd., North End Rd, London, NW11 7RN</description>
    <coords>
      <lat>51.572221393232800000</lat>
      <lon>-0.193993261252232000</lon>
    </coords>
  </station>
  <station code="" name="Goldhawk Road" active="false">
    <description>Goldhawk Road Station, London Underground Ltd., Goldhawk Rd, London, W12 8EG</description>
    <coords>
      <lat>51.501952197301270000</lat>
      <lon>-0.226748329203583370</lon>
    </coords>
  </station>
  <station code="GST" name="Goodge Street" active="true">
    <description>Goodge Street Station, London Underground Ltd., 75 Tottenham Court Rd, London, W1P 9PA</description>
    <coords>
      <lat>51.520424996045500000</lat>
      <lon>-0.134662152092394320</lon>
    </coords>
  </station>
  <station code="GRH" name="Grange Hill" active="true">
    <description>Grange Hill Station, London Underground Ltd., Manor Rd, Chigwell, Essex IG7 5QB</description>
    <coords>
      <lat>51.613349857801460000</lat>
      <lon>.092146407242701880</lon>
    </coords>
  </station>
  <station code="GPS" name="Great Portland Street" active="true">
    <description>Great Portland Street Station, London Underground Ltd., Euston Rd, London, NW1</description>
    <coords>
      <lat>51.523720314628890000</lat>
      <lon>-0.143956086447368930</lon>
    </coords>
  </station>
  <station code="GPK" name="Green Park" active="true">
    <description>Green Park Station, London Underground Ltd., Piccadilly, London, W1V 9HG</description>
    <coords>
      <lat>51.506850108502306000</lat>
      <lon>-0.142927422207874380</lon>
    </coords>
  </station>
  <station code="GFD" name="Greenford" active="true">
    <description>Greenford Station, London Underground Ltd., Oldfield Lane, Greenford, Middx, UB6 8PX</description>
    <coords>
      <lat>51.542302026759124000</lat>
      <lon>-0.346444146567460000</lon>
    </coords>
  </station>
  <station code="GUN" name="Gunnersbury" active="true">
          <description>London Underground, 55 Broadway, London, SW1H 0BD</description>
          <coords>
                  <lat>51.491793104326040000</lat>
                  <lon>-0.275175034795658400</lon>
          </coords>
  </station>
  <station code="HAI" name="Hainault" active="true">
    <description>Hainault Station, London Underground Ltd., New North Rd, Ilford, Essex, IG6 3BD</description>
    <coords>
      <lat>51.603727217978240000</lat>
      <lon>.093119014044497110</lon>
    </coords>
  </station>
  <station code="HMS" name="Hammersmith" active="true">
          <description>London Underground, 55 Broadway, London, SW1H 0BD</description>
          <coords>
                  <lat>51.493497772006556000</lat>
                  <lon>-0.224930071064953470</lon>
          </coords>
  </station>
  <station code="HMP" name="Hampstead" active="true">
    <description>Hampstead Station, London Underground Ltd., Hampstead High St, London, NW3 1QG</description>
    <coords>
      <lat>51.556688476264430000</lat>
      <lon>-0.178219762924764630</lon>
    </coords>
  </station>
  <station code="HLN" name="Hanger Lane" active="true">
    <description>Hanger Lane Station, London Underground Ltd., Hanger Lane, London, W5 1DL</description>
    <coords>
      <lat>51.530006403588040000</lat>
      <lon>-0.293007522620696200</lon>
    </coords>
  </station>
  <station code="HTX" name="Hatton Cross" active="true">
    <description>Hatton Cross Station, London Underground Ltd., Great South West Rd, Feltham, Middx, </description>
    <coords>
      <lat>51.466614173462760000</lat>
      <lon>-0.423409349454662700</lon>
    </coords>
  </station>
  <station code="HTF" name="Heathrow Terminal 4" active="true">
    <description>Heathrow T4 Station, London Underground Ltd., Hthrw Airport complex, Trmnl 4, Hounslow, Middx</description>
    <coords>
      <lat>51.458553104092005000</lat>
      <lon>-0.446058766977937300</lon>
    </coords>
  </station>
  <station code="HND" name="Hendon Central" active="true">
    <description>Hendon Central Station, London Underground Ltd., Queens Rd, London, NW4 3AS</description>
    <coords>
      <lat>51.583293830072000000</lat>
      <lon>-0.226496207803293200</lon>
    </coords>
  </station>
  <station code="HBT" name="High Barnet" active="true">
    <description>High Barnet Station, London Underground Ltd., Barnet Hill, Barnet, Herts, EN5 5RP</description>
    <coords>
      <lat>51.650601170588565000</lat>
      <lon>-0.194751021947520400</lon>
    </coords>
  </station>
  <station code="HST" name="High Street Kensington" active="true">
    <description>High Street Kensington Station, London Underground Ltd., Kensington High St, London, W8 5SA</description>
    <coords>
      <lat>51.500673420263205000</lat>
      <lon>-0.192503135590810750</lon>
    </coords>
  </station>
  <station code="HBY" name="Highbury &amp; Islington" active="true">
    <description>Highbury &amp; Islington Underground Station, London Underground Ltd., Holloway Rd, London, N5 1RA</description>
    <coords>
      <lat>51.546229491737870000</lat>
      <lon>-0.103964238784979300</lon>
    </coords>
  </station>
  <station code="HIG" name="Highgate" active="true">
    <description>Highgate Station, London Underground Ltd., Archway Rd, London, N6</description>
    <coords>
      <lat>51.577597829618790000</lat>
      <lon>-0.146638422561128380</lon>
    </coords>
  </station>
  <station code="HDN" name="Hillingdon" active="true">
    <description>Hillingdon Station, London Underground Ltd., Long Lane, Hillingdon, Uxbridge, Middlesex, UB10 9NR</description>
    <coords>
      <lat>51.553716844570935000</lat>
      <lon>-0.449926295661858930</lon>
    </coords>
  </station>
  <station code="HOL" name="Holborn" active="true">
    <description>Holborn Station, London Underground Ltd., Kingsway, London, WC2B 6AA</description>
    <coords>
      <lat>51.517438783075970000</lat>
      <lon>-0.120008849244825100</lon>
    </coords>
  </station>
  <station code="HPK" name="Holland Park" active="true">
    <description>Holland Park Station, London Underground Ltd., Holland Park Avenue, London, W11 3RB</description>
    <coords>
      <lat>51.507334043150680000</lat>
      <lon>-0.205728672749766300</lon>
    </coords>
  </station>
  <station code="HRD" name="Holloway Road" active="true">
    <description>Holloway Road Station, London Underground Ltd., Holloway Rd, London, N7 8HS</description>
    <coords>
      <lat>51.552750537878600000</lat>
      <lon>-0.112925632539152260</lon>
    </coords>
  </station>
  <station code="HCH" name="Hornchurch" active="true">
    <description>Hornchurch Station, London Underground Ltd., Station Lane, Hornchurch, Essex, RM12 6LS</description>
    <coords>
      <lat>51.554005256006330000</lat>
      <lon>.219018986707928050</lon>
    </coords>
  </station>
  <station code="HNC" name="Hounslow Central" active="true">
    <description>Hounslow Central Station, London Underground Ltd., Lampton Rd, Hounslow, Middx, TW3 1JG</description>
    <coords>
      <lat>51.471083300365436000</lat>
      <lon>-0.366922420319065300</lon>
    </coords>
  </station>
  <station code="HNE" name="Hounslow East" active="true">
    <description>Hounslow East Station, London Underground Ltd., Kingsley Rd, Hounslow, Middx, TW3 4AB</description>
    <coords>
      <lat>51.473170615833226000</lat>
      <lon>-0.356695318244920060</lon>
    </coords>
  </station>
  <station code="HNW" name="Hounslow West" active="true">
    <description>Hounslow West Station, London Underground Ltd., Bath Rd, Hounslow, Middx, TW3 3DH</description>
    <coords>
      <lat>51.473034798965720000</lat>
      <lon>-0.385731868407531600</lon>
    </coords>
  </station>
  <station code="HPC" name="Hyde Park Corner" active="true">
    <description>Hyde Park Corner Station, London Underground Ltd., Knightsbridge, London, SW1X 7LY</description>
    <coords>
      <lat>51.502760411212570000</lat>
      <lon>-0.152748811981766980</lon>
    </coords>
  </station>
  <station code="ICK" name="Ickenham" active="true">
    <description>Ickenham Station, London Underground Ltd., Glebe Avenue, Uxbridge, Middx, UB10 8PD</description>
    <coords>
      <lat>51.561984742559240000</lat>
      <lon>-0.442026555689012170</lon>
    </coords>
  </station>
  <station code="KEN" name="Kennington" active="true">
    <description>Kennington Station, London Underground Ltd., Kennington Park Rd, London, SE11 4QJ</description>
    <coords>
      <lat>51.488119530611540000</lat>
      <lon>-0.105485152526283220</lon>
    </coords>
  </station>
  <station code="KTN" name="Kentish Town" active="true">
    <description>Kentish Town Underground Station, London Underground Ltd., Kentish Town Rd, London, NW5 2AA</description>
    <coords>
      <lat>51.550303762237870000</lat>
      <lon>-0.140464192953272140</lon>
    </coords>
  </station>
  <station code="KIL" name="Kilburn" active="true">
    <description>Kilburn Station, London Underground Ltd., Shootup Hill, London, NW6 7QL</description>
    <coords>
      <lat>51.546879502456840000</lat>
      <lon>-0.204633341254655960</lon>
    </coords>
  </station>
  <station code="KPK" name="Kilburn Park" active="true">
    <description>Kilburn Park Station, London Underground Ltd., Cambridge Avenue, London, NW6 5AD</description>
    <coords>
      <lat>51.535069084357000000</lat>
      <lon>-0.193965947368527200</lon>
    </coords>
  </station>
  <station code="KBY" name="Kingsbury" active="true">
    <description>Kingsbury Station, London Underground Ltd., Kingsbury Rd, London, NW9 9EG</description>
    <coords>
      <lat>51.584756866190325000</lat>
      <lon>-0.278799057434066500</lon>
    </coords>
  </station>
  <station code="KNB" name="Knightsbridge" active="true">
    <description>Knightsbridge Station, London Underground Ltd., Sloane St, London, SW1</description>
    <coords>
      <lat>51.501551433201136000</lat>
      <lon>-0.160507091328832150</lon>
    </coords>
  </station>
  <station code="KXX" name="King's Cross St. Pancras" active="true">
          <description>London Underground, 55 Broadway, London, SW1H 0BD</description>
          <coords>
                  <lat>51.530397237917526000</lat>
                  <lon>-0.123857948142452990</lon>
          </coords>
  </station>
  <station code="" name="Ladbroke Grove" active="false">
    <description>Ladbroke Grove Station, London Underground Ltd., Ladbroke Grove, London, W10 6HJ</description>
    <coords>
      <lat>51.517188449881736000</lat>
      <lon>-0.210861917848587150</lon>
    </coords>
  </station>
  <station code="LAM" name="Lambeth North" active="true">
    <description>Lambeth North Station, London Underground Ltd., 110 Westminster Bridge Rd, London, SE1 7XG</description>
    <coords>
      <lat>51.499058148698570000</lat>
      <lon>-0.111760270277701970</lon>
    </coords>
  </station>
  <station code="LAN" name="Lancaster Gate" active="true">
    <description>Lancaster Gate Station, London Underground Ltd., Bayswater Rd, London, W2</description>
    <coords>
      <lat>51.511821534588610000</lat>
      <lon>-0.175428659257816700</lon>
    </coords>
  </station>
  <station code="" name="Latimer Road" active="false">
    <description>Latimer Road Station, London Underground Ltd., Bramley Rd, London, W10 6SZ</description>
    <coords>
      <lat>51.513543593897175000</lat>
      <lon>-0.217779301792146050</lon>
    </coords>
  </station>
  <station code="LSQ" name="Leicester Square" active="true">
    <description>Leicester Square Station, London Underground Ltd., Cranbourn St, London, WC2H 0AP</description>
    <coords>
      <lat>51.511221028367200000</lat>
      <lon>-0.128235532172760460</lon>
    </coords>
  </station>
  <station code="LEY" name="Leyton" active="true">
    <description>Leyton Underground Station, London Underground Ltd., High Rd, Leyton, London, E10 5PS</description>
    <coords>
      <lat>51.556432927054910000</lat>
      <lon>-0.005619879781309080</lon>
    </coords>
  </station>
  <station code="LYS" name="Leytonstone" active="true">
    <description>Leytonstone Station, London Underground Ltd., Church Lane, London, E11 1HE</description>
    <coords>
      <lat>51.568185263674590000</lat>
      <lon>.008215047486340644</lon>
    </coords>
  </station>
  <station code="LST" name="Liverpool Street" active="true">
    <description>Liverpool Street Underground Station Central, London Underground Ltd., Liverpool Street, London, EC2M 7PP</description>
    <coords>
      <lat>51.517351230751740000</lat>
      <lon>-0.082965709456943840</lon>
    </coords>
  </station>
  <station code="LON" name="London Bridge" active="true">
    <description>London Bridge Underground Station, London Underground Ltd., 21 Duke St Hill, London, SE1 2SW</description>
    <coords>
      <lat>51.505499353249796000</lat>
      <lon>-0.086922404191941930</lon>
    </coords>
  </station>
  <station code="LTN" name="Loughton" active="true">
    <description>Loughton Station, London Underground Ltd., Old Station Rd, Roding Rd, Loughton, Essex, IG10 4PD</description>
    <coords>
      <lat>51.641512759080584000</lat>
      <lon>.055311997154570370</lon>
    </coords>
  </station>
  <station code="MDV" name="Maida Vale" active="true">
    <description>Maida Vale Station, London Underground Ltd., Elgin Avenue, London, W9 1JS</description>
    <coords>
      <lat>51.529760016810314000</lat>
      <lon>-0.185625902229911570</lon>
    </coords>
  </station>
  <station code="MNR" name="Manor House" active="true">
    <description>Manor House Station, London Underground Ltd., Green Lanes, London, N4 1BZ</description>
    <coords>
      <lat>51.570756005284366000</lat>
      <lon>-0.095712466704881360</lon>
    </coords>
  </station>
  <station code="MAN" name="Mansion House" active="true">
    <description>Mansion House Station, London Underground Ltd., 38 Cannon St, London, EC4N 6JD</description>
    <coords>
      <lat>51.512021200956030000</lat>
      <lon>-0.094187135312932570</lon>
    </coords>
  </station>
  <station code="MAR" name="Marble Arch" active="true">
    <description>Marble Arch Station, London Underground Ltd., Oxford St, London, W1R 1DD</description>
    <coords>
      <lat>51.513543293181170000</lat>
      <lon>-0.158438046626587060</lon>
    </coords>
  </station>
  <station code="MYB" name="Marylebone" active="true">
    <description>Marylebone Underground Station, London Underground Ltd., Harewood Row, London, NW1 6JP</description>
    <coords>
      <lat>51.522223341970424000</lat>
      <lon>-0.163104487142123720</lon>
    </coords>
  </station>
  <station code="MLE" name="Mile End" active="true">
    <description>Mile End Station, London Underground Ltd., Mile End Rd, London, E3 4DH</description>
    <coords>
      <lat>51.525091871834480000</lat>
      <lon>-0.033404170381106150</lon>
    </coords>
  </station>
  <station code="MHE" name="Mill Hill East" active="true">
    <description>Mill Hill East Station, London Underground Ltd., Bittacy Hill, London, NW7 1BS</description>
    <coords>
      <lat>51.608258895239280000</lat>
      <lon>-0.209894419946043500</lon>
    </coords>
  </station>
  <station code="MON" name="Monument" active="true">
    <description>Monument Station, London Underground Ltd., King William St, London, EC4R 9AA</description>
    <coords>
      <lat>51.513347819184280000</lat>
      <lon>-0.088942732741562510</lon>
    </coords>
  </station>
  <station code="MPK" name="Moor Park" active="true">
    <description>Moor Park Station, London Underground Ltd., Sandy Lodge Lane, Rickmansworth, Herts, HA6 2JQ.</description>
    <coords>
      <lat>51.629731090477620000</lat>
      <lon>-0.432666848603920740</lon>
    </coords>
  </station>
  <station code="MGT" name="Moorgate" active="true">
    <description>Moorgate Station, London Underground Ltd., Moorfields, London, EC2Y 9AE</description>
    <coords>
      <lat>51.518367249884620000</lat>
      <lon>-0.089006315013091150</lon>
    </coords>
  </station>
  <station code="MOR" name="Morden" active="true">
    <description>Morden Underground Station, London Underground Ltd., London Rd, Morden, Surrey, SM4 5AZ</description>
    <coords>
      <lat>51.402336940766870000</lat>
      <lon>-0.194790700834515200</lon>
    </coords>
  </station>
  <station code="MCR" name="Mornington Crescent" active="true">
    <description>Mornington Crescent Station, London Underground Ltd., Eversholt St, London, NW1 2JA</description>
    <coords>
      <lat>51.534206610602570000</lat>
      <lon>-0.138842529989899570</lon>
    </coords>
  </station>
  <station code="NEA" name="Neasden" active="true">
    <description>Neasden Station, London Underground Ltd., Neasden Lane, London, NW10 1PH</description>
    <coords>
      <lat>51.553965717461770000</lat>
      <lon>-0.249782872822431580</lon>
    </coords>
  </station>
  <station code="NEP" name="Newbury Park" active="true">
    <description>Newbury Park Station, London Underground Ltd., Eastern Avenue, Ilford, Essex, IG2 7RN</description>
    <coords>
      <lat>51.575572493610600000</lat>
      <lon>.090337313681270550</lon>
    </coords>
  </station>
  <station code="NAC" name="North Acton" active="true">
    <description>North Acton Station, London Underground Ltd., Victoria Rd, London, W3 6UP</description>
    <coords>
      <lat>51.523365556364130000</lat>
      <lon>-0.259737385737795140</lon>
    </coords>
  </station>
  <station code="NEL" name="North Ealing" active="true">
    <description>North Ealing Station, London Underground Ltd., Station Road, London, W5 3AF</description>
    <coords>
      <lat>51.517555160358675000</lat>
      <lon>-0.289004979762560500</lon>
    </coords>
  </station>
  <station code="NGW" name="North Greenwich" active="true">
    <description>North Greenwich Station, London Underground Ltd., 5 Millenium Way, London, SE10 0PH</description>
    <coords>
      <lat>51.500181823992640000</lat>
      <lon>.003607416938325964</lon>
    </coords>
  </station>
  <station code="NHR" name="North Harrow" active="true">
    <description>North Harrow Station, London Underground Ltd., Station Rd, North Harrow, Middx, HA2 7SR</description>
    <coords>
      <lat>51.584791846729885000</lat>
      <lon>-0.362223573258194200</lon>
    </coords>
  </station>
  <station code="NFD" name="Northfields" active="true">
    <description>Northfields Station, London Underground Ltd., Northfield Avenue, London, W13 9QU</description>
    <coords>
      <lat>51.499276482193580000</lat>
      <lon>-0.314156832664969850</lon>
    </coords>
  </station>
  <station code="NHT" name="Northolt" active="true">
    <description>Northolt Underground Station, London Underground Ltd., Mandeville Rd, Northolt, Middx, UB5 4AA</description>
    <coords>
      <lat>51.548150439002740000</lat>
      <lon>-0.368459834282661160</lon>
    </coords>
  </station>
  <station code="NWP" name="Northwick Park" active="true">
    <description>Northwick Park Station, London Underground Ltd., Northwick Avenue, Harrow, Middx, HA3 0AT</description>
    <coords>
      <lat>51.578592841487520000</lat>
      <lon>-0.318206356876206400</lon>
    </coords>
  </station>
  <station code="NWD" name="Northwood" active="true">
    <description>Northwood Station, London Underground Ltd., Station Approach, Green Lane, Northwood, Middx, HA6 2XL</description>
    <coords>
      <lat>51.611159228903716000</lat>
      <lon>-0.423860793851574430</lon>
    </coords>
  </station>
  <station code="NWH" name="Northwood Hills" active="true">
    <description>Northwood Hills Station, London Underground Ltd., Joel St, Northwood, Middx, HA6 1NZ</description>
    <coords>
      <lat>51.600494576500000000</lat>
      <lon>-0.409298630674160700</lon>
    </coords>
  </station>
  <station code="NHG" name="Notting Hill Gate" active="true">
    <description>Notting Hill Gate Station, London Underground Ltd., Notting Hill Gate, London, W11 3HT</description>
    <coords>
      <lat>51.509063533643740000</lat>
      <lon>-0.196537685407762500</lon>
    </coords>
  </station>
  <station code="OAK" name="Oakwood" active="true">
    <description>Oakwood Station, London Underground Ltd., Bramley Rd, London, N14 4UT</description>
    <coords>
      <lat>51.647583649194110000</lat>
      <lon>-0.131841721300937210</lon>
    </coords>
  </station>
  <station code="OLD" name="Old Street" active="true">
    <description>Old Street Station, London Underground Ltd., Old St, London, EC1V 9NR</description>
    <coords>
      <lat>51.525601323369810000</lat>
      <lon>-0.087549731436462540</lon>
    </coords>
  </station>
  <station code="OST" name="Osterley" active="true">
    <description>Osterley Station, London Underground Ltd., Great West Rd, Isleworth, Middx, TW7 4PU</description>
    <coords>
      <lat>51.480928804588714000</lat>
      <lon>-0.351994404645611300</lon>
    </coords>
  </station>
  <station code="OVL" name="Oval" active="true">
    <description>Oval Station, London Underground Ltd., 318 Kennington Park Rd, London, SE11 4PP</description>
    <coords>
      <lat>51.482105452338025000</lat>
      <lon>-0.112893408798067650</lon>
    </coords>
  </station>
  <station code="OXC" name="Oxford Circus" active="true">
    <description>Oxford Circus Station, London Underground Ltd., Oxford St, London, W1R 1AB</description>
    <coords>
      <lat>51.515123799037090000</lat>
      <lon>-0.141768983668966370</lon>
    </coords>
  </station>
  <station code="PAD" name="Paddington" active="true">
    <description>Paddington Underground Stations, London Underground Ltd., Praed St, London, W2</description>
    <coords>
      <lat>51.515310415793490000</lat>
      <lon>-0.175390006010324200</lon>
    </coords>
  </station>
  <station code="PRY" name="Park Royal" active="true">
    <description>Park Royal Station, London Underground Ltd., Western Avenue, London, W5 3EL</description>
    <coords>
      <lat>51.526901379245410000</lat>
      <lon>-0.284228015904849400</lon>
    </coords>
  </station>
  <station code="PGR" name="Parsons Green" active="true">
    <description>Parsons Green Station, London Underground Ltd., Parsons Green Lane, London, SW6 4HJ</description>
    <coords>
      <lat>51.475095330474790000</lat>
      <lon>-0.201234656583119650</lon>
    </coords>
  </station>
  <station code="PER" name="Perivale" active="true">
    <description>Perivale Station, London Underground Ltd., Horsenden Lane, Greenford, Middx</description>
    <coords>
      <lat>51.536594089926690000</lat>
      <lon>-0.323852038492346400</lon>
    </coords>
  </station>
  <station code="PIC" name="Piccadilly Circus" active="true">
    <description>Piccadilly Circus Station, London Underground Ltd., Piccadilly Circus, London, W1V 9LB</description>
    <coords>
      <lat>51.510026995270750000</lat>
      <lon>-0.134006365558421630</lon>
    </coords>
  </station>
  <station code="PIM" name="Pimlico" active="true">
    <description>Pimlico Station, London Underground Ltd., Bessborough St, London, SW1V 2JA</description>
    <coords>
      <lat>51.489193760110520000</lat>
      <lon>-0.133748665287791170</lon>
    </coords>
  </station>
  <station code="PIN" name="Pinner" active="true">
    <description>Pinner Station, London Underground Ltd., Station Approach, Pinner, Middx, HA5 5LZ</description>
    <coords>
      <lat>51.592857630090860000</lat>
      <lon>-0.380919804150348800</lon>
    </coords>
  </station>
  <station code="PLW" name="Plaistow" active="true">
    <description>Plaistow Station, London Underground Ltd., Plaistow Rd, London, E15</description>
    <coords>
      <lat>51.531218392483616000</lat>
      <lon>.017804698696490015</lon>
    </coords>
  </station>
  <station code="" name="Preston Road" active="false">
    <description>Preston Road Station, London Underground Ltd., Preston Rd, Wembley, Middx, HA3 0PS</description>
    <coords>
      <lat>51.572037991815020000</lat>
      <lon>-0.295256300158967800</lon>
    </coords>
  </station>
  <station code="PUT" name="Putney Bridge" active="true">
    <description>Putney Bridge Station, London Underground Ltd., Station Approach, London, SW6 3UH</description>
    <coords>
      <lat>51.467902222271880000</lat>
      <lon>-0.208976678487921420</lon>
    </coords>
  </station>
  <station code="QBY" name="Queensbury" active="true">
    <description>Queensbury Station, London Underground Ltd., Cumberland Rd, Harrow, Middx, HA8 5NP</description>
    <coords>
      <lat>51.594347148072560000</lat>
      <lon>-0.285785681643207800</lon>
    </coords>
  </station>
  <station code="QWY" name="Queensway" active="true">
    <description>Queensway Station, London Underground Ltd., Bayswater Rd, London, W2 4SS</description>
    <coords>
      <lat>51.510380051624610000</lat>
      <lon>-0.187434461364574480</lon>
    </coords>
  </station>
  <station code="RCP" name="Ravenscourt Park" active="true">
    <description>Ravenscourt Park Station, London Underground Ltd., Ravenscourt Rd, London, W6 0UG</description>
    <coords>
      <lat>51.494136531497860000</lat>
      <lon>-0.236258353945599400</lon>
    </coords>
  </station>
  <station code="RLN" name="Rayners Lane" active="true">
    <description>Rayners Lane Station, London Underground Ltd., Alexandra Avenue, Harrow, Middx</description>
    <coords>
      <lat>51.574976703881340000</lat>
      <lon>-0.371005563517764870</lon>
    </coords>
  </station>
  <station code="RED" name="Redbridge" active="true">
    <description>Redbridge Station, London Underground Ltd., Eastern Avenue, Ilford, Essex, IG4 5OQ</description>
    <coords>
      <lat>51.576301792400690000</lat>
      <lon>.045423116107576156</lon>
    </coords>
  </station>
  <station code="RPK" name="Regent's Park" active="true">
    <description>Regent's Park Station, London Underground Ltd., Marylebone Rd, London, NW1 5HA</description>
    <coords>
      <lat>51.523505503468370000</lat>
      <lon>-0.146862634752862040</lon>
    </coords>
  </station>
  <station code="RKY" name="Rickmansworth" active="true">
    <description>Rickmansworth Station, London Underground Ltd., Station Approach, Rickmansworth, Herts, WD3 1QY</description>
    <coords>
      <lat>51.640272706988570000</lat>
      <lon>-0.473712107018385900</lon>
    </coords>
  </station>
  <station code="ROD" name="Roding Valley" active="true">
    <description>Roding Valley Station, London Underground Ltd., Station Way, Buckhurst Hill, Essex, IG9 6LN</description>
    <coords>
      <lat>51.617115241205420000</lat>
      <lon>.043864415463376070</lon>
    </coords>
  </station>
  <station code="" name="Rotherhithe" active="false">
    <description>Rotherhithe Station, London Underground Ltd., Brunel Rd, London, SE16 4LF</description>
    <coords>
      <lat>51.501005694266450000</lat>
      <lon>-0.052180998321318894</lon>
    </coords>
  </station>
  <station code="" name="Royal Oak" active="false">
    <description>Royal Oak Station, London Underground Ltd., Lord Hills Bridge, London, W2 6ET</description>
    <coords>
      <lat>51.519017120333290000</lat>
      <lon>-0.188230043028310500</lon>
    </coords>
  </station>
  <station code="RUI" name="Ruislip" active="true">
    <description>Ruislip Station, London Underground Ltd., Station Approach, Ruislip, Middx, HA4 8LD</description>
    <coords>
      <lat>51.571449113222800000</lat>
      <lon>-0.421455074014979600</lon>
    </coords>
  </station>
  <station code="RUG" name="Ruislip Gardens" active="true">
    <description>Ruislip Gardens Station, London Underground Ltd., West End Rd, Ruislip, Middx, HA4 6NF</description>
    <coords>
      <lat>51.560588503076744000</lat>
      <lon>-0.411039284928411100</lon>
    </coords>
  </station>
  <station code="RUM" name="Ruislip Manor" active="true">
    <description>Ruislip Manor Station, London Underground Ltd., Victoria Rd, Ruislip, Middx, HA4 9AA</description>
    <coords>
      <lat>51.573187677867050000</lat>
      <lon>-0.412345792093259500</lon>
    </coords>
  </station>
  <station code="RSQ" name="Russell Square" active="true">
    <description>Russell Square Station, London Underground Ltd., Bernard St, London, WC1N 1LG</description>
    <coords>
      <lat>51.522912845083240000</lat>
      <lon>-0.124310055647967780</lon>
    </coords>
  </station>
  <station code="SJP" name="St. James's Park">
          <description>London Underground, 55 Broadway, London, SW1H 0BD</description>
          <coords>
                  <lat>51.499345456140375000</lat>
                  <lon>-0.134183744115531720</lon>
          </coords>
  </station>
  <station code="SJW" name="St. John's Wood" active="true">
          <description>London Underground, 55 Broadway, London, SW1H 0BD</description>
          <coords>
                  <lat>51.534564516315330000</lat>
                  <lon>-0.174172356336729750</lon>
          </coords>
  </station>
  <station code="SVS" name="Seven Sisters" active="true">
    <description>Seven Sisters Underground Station, London Underground Ltd., Seven Sisters Rd, London</description>
    <coords>
      <lat>51.583354184664740000</lat>
      <lon>-0.072491881494998600</lon>
    </coords>
  </station>
  <station code="" name="Shadwell" active="false">
    <description>Shadwell Station, London Underground Ltd., Cable St, London, E1 2QE</description>
    <coords>
      <lat>51.511228978184640000</lat>
      <lon>-0.056904475684454184</lon>
    </coords>
  </station>
  <station code="SSQ" name="Sloane Square" active="true">
    <description>Sloane Square Station, London Underground Ltd., Sloane Square, London, SW1W 8BB</description>
    <coords>
      <lat>51.492287824097220000</lat>
      <lon>-0.156486231690913330</lon>
    </coords>
  </station>
  <station code="SNB" name="Snaresbrook" active="true">
    <description>Snaresbrook Station, London Underground Ltd., Station Approach, London, E11 1QE</description>
    <coords>
      <lat>51.580827019760860000</lat>
      <lon>.021490462438689930</lon>
    </coords>
  </station>
  <station code="SEL" name="South Ealing" active="true">
    <description>South Ealing Station, London Underground Ltd., South Ealing Rd, London, W5 4QB</description>
    <coords>
      <lat>51.501367936344180000</lat>
      <lon>-0.307018839246706250</lon>
    </coords>
  </station>
  <station code="SHR" name="South Harrow" active="true">
    <description>South Harrow Station, London Underground Ltd., South Hill Ave, Harrow, Middx, HA2 8HN</description>
    <coords>
      <lat>51.564677570548550000</lat>
      <lon>-0.352211570870426400</lon>
    </coords>
  </station>
  <station code="SKN" name="South Kensington" active="true">
    <description>South Kensington Station, London Underground Ltd., Pelham St, London, SW7 2NB</description>
    <coords>
      <lat>51.493999872763690000</lat>
      <lon>-0.173922310883827400</lon>
    </coords>
  </station>
  <station code="SRP" name="South Ruislip" active="true">
    <description>South Ruislip Station, London Underground Ltd., Station Approach, Ruislip, Middx, HA4 6DP</description>
    <coords>
      <lat>51.556516957971670000</lat>
      <lon>-0.398658757175952700</lon>
    </coords>
  </station>
  <station code="SWM" name="South Wimbledon" active="true">
    <description>South Wimbledon Station, London Underground Ltd., High St, London, SW19 1DE</description>
    <coords>
      <lat>51.415280365884330000</lat>
      <lon>-0.191979094023124400</lon>
    </coords>
  </station>
  <station code="SWF" name="South Woodford" active="true">
    <description>South Woodford Station, London Underground Ltd., George Lane, London, E18 1JJ</description>
    <coords>
      <lat>51.591725648273090000</lat>
      <lon>.027317133742799650</lon>
    </coords>
  </station>
  <station code="SFS" name="Southfields" active="true">
    <description>Southfields Station, Wimbledon Park Rd, London, SW18</description>
    <coords>
      <lat>51.444931327018910000</lat>
      <lon>-0.206537544055385570</lon>
    </coords>
  </station>
  <station code="SGT" name="Southgate" active="true">
    <description>Southgate Station, London Underground Ltd., High St, London, N14</description>
    <coords>
      <lat>51.632319710071860000</lat>
      <lon>-0.127758393371046300</lon>
    </coords>
  </station>
  <station code="SBC" name="Shepherd's Bush" active="true">
     <description>London Underground, 55 Broadway, London, SW1H 0BD</description>
     <coords>
       <lat>51.505560868490754000</lat>
       <lon>-0.226305459017774930</lon>
     </coords>
  </station>
  <station code="STP" name="St. Paul's" active="true">
     <description>London Underground, 55 Broadway, London, SW1H 0BD</description>
     <coords>
       <lat>51.514801296733296000</lat>
       <lon>-0.097573654477604190</lon>
     </coords>
  </station>
  <station code="SWK" name="Southwark" active="true">
    <description>Southwark Station, London Underground Ltd., 68 - 70 Blackfriars Rd, London, SE1 8NW</description>
    <coords>
      <lat>51.503843006939000000</lat>
      <lon>-0.105091836006184110</lon>
    </coords>
  </station>
  <station code="STB" name="Stamford Brook" active="true">
    <description>Stamford Brook Station, London Underground Ltd., Goldhawk Rd, London, W6</description>
    <coords>
      <lat>51.494796231456820000</lat>
      <lon>-0.245453795237972340</lon>
    </coords>
  </station>
  <station code="STA" name="Stanmore" active="true">
    <description>Stanmore Station, London Underground Ltd., London Rd, Stanmore, Middx, HA7 4PD</description>
    <coords>
      <lat>51.619618336838600000</lat>
      <lon>-0.303108171358637650</lon>
    </coords>
  </station>
  <station code="STG" name="Stepney Green" active="true">
    <description>Stepney Green Station, London Underground Ltd., Mile End Rd, London, E1 4AQ</description>
    <coords>
      <lat>51.521910629627830000</lat>
      <lon>-0.046458666350820540</lon>
    </coords>
  </station>
  <station code="STK" name="Stockwell" active="true">
    <description>Stockwell Station, London Underground Ltd., Clapham Rd, London, SW9 9AE</description>
    <coords>
      <lat>51.472166538615750000</lat>
      <lon>-0.122909311662102960</lon>
    </coords>
  </station>
  <station code="SFD" name="Stratford" active="true">
    <description>Stratford Station BR Station St, London, E15 1DE</description>
    <coords>
      <lat>51.541309265966866000</lat>
      <lon>-0.003195329570308264</lon>
    </coords>
  </station>
  <station code="SHL" name="Sudbury Hill" active="true">
    <description>Sudbury Hill Underground Station, London Underground Ltd., Greenford Rd, Harrow, Middx, HA1 3RA</description>
    <coords>
      <lat>51.556996189234300000</lat>
      <lon>-0.336215632044355560</lon>
    </coords>
  </station>
  <station code="STN" name="Sudbury Town" active="true">
    <description>Sudbury Town Station, London Underground Ltd., Station Approach, Wembley, Middx, HA0 2LA</description>
    <coords>
      <lat>51.550782456897100000</lat>
      <lon>-0.315482697033724100</lon>
    </coords>
  </station>
  <station code="" name="Surrey Quays" active="false">
    <description>Surrey Quays Station, London Underground Ltd., Lower Rd, London, SE16 2UF</description>
    <coords>
      <lat>51.493193457463170000</lat>
      <lon>-0.047514931071433080</lon>
    </coords>
  </station>
  <station code="SWC" name="Swiss Cottage" active="true">
    <description>Swiss Cottage Station, London Underground Ltd., Finchley Rd, London, NW3 6HY</description>
    <coords>
      <lat>51.543315320154384000</lat>
      <lon>-0.174759253028733900</lon>
    </coords>
  </station>
  <station code="TEM" name="Temple" active="true">
    <description>Temple Station, London Underground Ltd., Victoria Embankment, London, WC2R 2PH</description>
    <coords>
      <lat>51.510969984944460000</lat>
      <lon>-0.113703089738369980</lon>
    </coords>
  </station>
  <station code="THB" name="Theydon Bois" active="true">
    <description>Theydon Bois Station, London Underground Ltd., Coppice Row, Theydon Bois, Essex, CM16 7EU</description>
    <coords>
      <lat>51.671711317303384000</lat>
      <lon>.103125376663494610</lon>
    </coords>
  </station>
  <station code="TBE" name="Tooting Bec" active="true">
    <description>Tooting Bec Station, London Underground Ltd., Balham High Rd, London, SW17 9AH</description>
    <coords>
      <lat>51.435759628808380000</lat>
      <lon>-0.159700539935752140</lon>
    </coords>
  </station>
  <station code="TBY" name="Tooting Broadway" active="true">
    <description>Tooting Broadway Station, London Underground Ltd., Tooting High St, London, SW17 0SU</description>
    <coords>
      <lat>51.427435389662655000</lat>
      <lon>-0.167976763305219070</lon>
    </coords>
  </station>
  <station code="TCR" name="Tottenham Court Road" active="true">
    <description>Tottenham Court Road Station, London Underground Ltd., Oxford St, London, W1</description>
    <coords>
      <lat>51.516209552513860000</lat>
      <lon>-0.130870518140944360</lon>
    </coords>
  </station>
  <station code="TTH" name="Tottenham Hale" active="true">
    <description>Tottenham Hale Underground Station, London Underground Ltd., Station Rd, London, N17 9LR</description>
    <coords>
      <lat>51.588045301521500000</lat>
      <lon>-0.060281116367504950</lon>
    </coords>
  </station>
  <station code="TOT" name="Totteridge &amp; Whetstone" active="true">
    <description>Totteridge &amp; Whetstone Station, London Underground Ltd., Totteridge Lane, London, N20 9QP</description>
    <coords>
      <lat>51.630207704762380000</lat>
      <lon>-0.179261212923982800</lon>
    </coords>
  </station>
  <station code="THL" name="Tower Hill" active="true">
    <description>Tower Hill Station, London Underground Ltd., Trinity Square, London, EC3N 4DJ</description>
    <coords>
      <lat>51.510065953884120000</lat>
      <lon>-0.076353695174605170</lon>
    </coords>
  </station>
  <station code="TPK" name="Tufnell Park" active="true">
    <description>Tufnell Park Station, London Underground Ltd., Fortress Rd, London, N19 5QB</description>
    <coords>
      <lat>51.556666819988955000</lat>
      <lon>-0.137924881080636940</lon>
    </coords>
  </station>
  <station code="TGR" name="Turnham Green" active="true">
    <description>Turnham Green Station, London Underground Ltd., Turnham Green Terrace, London, W4 1LR</description>
    <coords>
      <lat>51.495111725298166000</lat>
      <lon>-0.254532982987942970</lon>
    </coords>
  </station>
  <station code="TPL" name="Turnpike Lane" active="true">
    <description>Turnpike Lane Station, London Underground Ltd., Westbury Avenue, London, N15 3NX</description>
    <coords>
      <lat>51.590296770154760000</lat>
      <lon>-0.102792275055815370</lon>
    </coords>
  </station>
  <station code="UPM" name="Upminster" active="true">
    <description>Upminster Station BR Station Rd, Upminster, Essex, RM14 2TD</description>
    <coords>
      <lat>51.558889076169990000</lat>
      <lon>.251087116066800950</lon>
    </coords>
  </station>
  <station code="UPB" name="Upminster Bridge" active="true">
    <description>Upminster Bridge Station, London Underground Ltd., Upminster Rd, Hornchurch, Essex, RM12 6PL</description>
    <coords>
      <lat>51.558750507947340000</lat>
      <lon>.235771220399919740</lon>
    </coords>
  </station>
  <station code="UPY" name="Upney" active="true">
    <description>Upney Station, London Underground Ltd., Upney Lane, Barking, Essex, IG11 9LS</description>
    <coords>
      <lat>51.538335312488270000</lat>
      <lon>.101565625591421570</lon>
    </coords>
  </station>
  <station code="UPK" name="Upton Park" active="true">
    <description>Upton Park Station, London Underground Ltd., Green St, London, E13 9AP</description>
    <coords>
      <lat>51.535233303921100000</lat>
      <lon>.035273180129164805</lon>
    </coords>
  </station>
  <station code="UXB" name="Uxbridge" active="true">
    <description>Uxbridge Station, London Underground Ltd., High St, Uxbridge, Middx, UB8 1JZ</description>
    <coords>
      <lat>51.546496370460570000</lat>
      <lon>-0.478139472136282440</lon>
    </coords>
  </station>
  <station code="VUX" name="Vauxhall" active="true">
    <description>Vauxhall Underground Station, London Underground Ltd., Vauxhall Cross, London, SE1</description>
    <coords>
      <lat>51.485733376040270000</lat>
      <lon>-0.123748951030590600</lon>
    </coords>
  </station>
  <station code="VIC" name="Victoria" active="true">
    <description>Victoria Underground Station, London Underground Ltd., Victoria St, London, SW1E 5ND</description>
    <coords>
      <lat>51.496342174731000000</lat>
      <lon>-0.143844854340144740</lon>
    </coords>
  </station>
  <station code="WAL" name="Walthamstow Central" active="true">
    <description>Walthamstow Central Station BR Hoe St, London, E17 7LP</description>
    <coords>
      <lat>51.582954705002570000</lat>
      <lon>-0.019918639025007567</lon>
    </coords>
  </station>
  <station code="WAN" name="Wanstead" active="true">
    <description>Wanstead Underground Station, London Underground Ltd., The Green, London, E11 2NT</description>
    <coords>
      <lat>51.575521336921070000</lat>
      <lon>.028745919335254173</lon>
    </coords>
  </station>
  <station code="" name="Wapping" active="false">
    <description>Wapping Station, London Underground Ltd., Wapping High St, London, E1 9NQ</description>
    <coords>
      <lat>51.504268283481814000</lat>
      <lon>-0.055846250896647850</lon>
    </coords>
  </station>
  <station code="WST" name="Warren Street" active="true">
    <description>Warren Street Station, London Underground Ltd., Tottenham Court Rd, London, NW1 3AA</description>
    <coords>
      <lat>51.524511517547950000</lat>
      <lon>-0.138272313383213400</lon>
    </coords>
  </station>
  <station code="WAR" name="Warwick Avenue" active="true">
    <description>Warwick Avenue Station, London Underground Ltd., Warwick Avenue, London, W9 2PT</description>
    <coords>
      <lat>51.523272522746110000</lat>
      <lon>-0.183678270688914820</lon>
    </coords>
  </station>
  <station code="WLO" name="Waterloo" active="true">
    <description>Waterloo Underground Station, London Underground Ltd., York Rd, London, SE1 7ND</description>
    <coords>
      <lat>51.503502207173680000</lat>
      <lon>-0.114069435807659030</lon>
    </coords>
  </station>
  <station code="WAT" name="Watford" active="true">
    <description>Watford Station, London Underground Ltd., Cassiobury Park Avenue, Watford, Herts, WD1 7LE</description>
    <coords>
      <lat>51.657420971906490000</lat>
      <lon>-0.417280631945957540</lon>
    </coords>
  </station>
  <station code="WPK" name="Wembley Park" active="true">
    <description>Wembley Park Station, London Underground Ltd., Bridge Road, Wembley, Middlesex, HA9 9AA</description>
    <coords>
      <lat>51.563260483955110000</lat>
      <lon>-0.279251008726512000</lon>
    </coords>
  </station>
  <station code="WAC" name="West Acton" active="true">
    <description>West Acton Station, London Underground Ltd., Station Parade, London, W3 6UP</description>
    <coords>
      <lat>51.517860586187880000</lat>
      <lon>-0.280993289991878060</lon>
    </coords>
  </station>
  <station code="WBT" name="West Brompton" active="true">
    <description>West Brompton Station, London Underground Ltd., Old Brompton Rd, London, SW5 9JX</description>
    <coords>
      <lat>51.487256950006746000</lat>
      <lon>-0.195540834373956750</lon>
    </coords>
  </station>
  <station code="WFY" name="West Finchley" active="true">
    <description>West Finchley Station, London Underground Ltd., Nether Street, London, N3 1NT</description>
    <coords>
      <lat>51.609485709772600000</lat>
      <lon>-0.188468869728233300</lon>
    </coords>
  </station>
  <station code="WHM" name="West Ham" active="true">
    <description>West Ham Underground Station, London Underground Ltd., Manor Rd, London, E15 3BN</description>
    <coords>
      <lat>51.528181772941785000</lat>
      <lon>.005039507096672237</lon>
    </coords>
  </station>
  <station code="WHD" name="West Hampstead" active="true">
    <description>West Hampstead Underground Station, London Underground Ltd., West End Lane, London, NW6 2LX</description>
    <coords>
      <lat>51.546701979094905000</lat>
      <lon>-0.190749850256434300</lon>
    </coords>
  </station>
  <station code="WHR" name="West Harrow" active="true">
    <description>West Harrow Station, London Underground Ltd., Vaughan Rd, Harrow, Middx, HA1 4HE</description>
    <coords>
      <lat>51.579778193709345000</lat>
      <lon>-0.352920630985434100</lon>
    </coords>
  </station>
  <station code="WKN" name="West Kensington" active="true">
    <description>West Kensington Station, London Underground Ltd., North End Rd, London, W14 9NL</description>
    <coords>
      <lat>51.490491685732100000</lat>
      <lon>-0.206477114705301220</lon>
    </coords>
  </station>
  <station code="WRP" name="West Ruislip" active="true">
    <description>West Ruislip Station, London Underground Ltd., Ickenham Rd, West Ruislip, Middlesex</description>
    <coords>
      <lat>51.569528862920430000</lat>
      <lon>-0.437886436759924000</lon>
    </coords>
  </station>
  <station code="" name="Westbourne Park" active="false">
    <description>Westbourne Park Station, London Underground Ltd., Western Rd, London, W11 1AB</description>
    <coords>
      <lat>51.520920849526010000</lat>
      <lon>-0.200883771467904430</lon>
    </coords>
  </station>
  <station code="WMS" name="Westminster" active="true">
    <description>Westminster Station, London Underground Ltd., Bridge St, London, SW1A 2JR</description>
    <coords>
      <lat>51.501084583446460000</lat>
      <lon>-0.124818265200698930</lon>
    </coords>
  </station>
  <station code="WCT" name="White City" active="true">
    <description>White City Station, London Underground Ltd., Wood Lane, London, W12 7RH</description>
    <coords>
      <lat>51.511978113587034000</lat>
      <lon>-0.224254319227984920</lon>
    </coords>
  </station>
  <station code="WCL" name="Whitechapel" active="true">
    <description>Whitechapel Station, London Underground Ltd., 277 Whitechapel Rd, London, E1 1BY</description>
    <coords>
      <lat>51.519455246890790000</lat>
      <lon>-0.059984982962259466</lon>
    </coords>
  </station>
  <station code="WLG" name="Willesden Green" active="true">
    <description>Willesden Green Station, London Underground Ltd., Walm Lane, London, NW2 4QT</description>
    <coords>
      <lat>51.549308888247985000</lat>
      <lon>-0.222410152080799300</lon>
    </coords>
  </station>
  <station code="WMP" name="Wimbledon Park" active="true">
    <description>Wimbledon Park Station, Arthur Rd, London, SW19</description>
    <coords>
      <lat>51.434464186025440000</lat>
      <lon>-0.199595272173123170</lon>
    </coords>
  </station>
  <station code="WGN" name="Wood Green" active="true">
    <description>Wood Green Station, London Underground Ltd., High Rd, Wood Green, London, N22 4HH</description>
    <coords>
      <lat>51.597476031308410000</lat>
      <lon>-0.109626380548445640</lon>
    </coords>
  </station>
  <station code="WFD" name="Woodford" active="true">
    <description>Woodford Station, London Underground Ltd., Snakes Lane, Woodford Green, Essex</description>
    <coords>
      <lat>51.607033365181010000</lat>
      <lon>.034037144154079255</lon>
    </coords>
  </station>
  <station code="WSP" name="Woodside Park" active="true">
    <description>Woodside Park Station, London Underground Ltd., Woodside Park Rd, London, N12 8SE</description>
    <coords>
      <lat>51.617811407382945000</lat>
      <lon>-0.185421027508838540</lon>
    </coords>
  </station>
</stations>
